{
	"OpenJaw_To_Label" : "To",
	"depart_window_Image" : "",
	"Travel_Flexibility_Range" : "",
	"OpenJaw_Flight2_Label" : "Flight 2",
	"SearchHeading_Label" : "Search Flight",
	"Zone_Tip_Label" : "Travel valid on all non-stop domestic flights operated by Vistara within India serving the following destinations: Delhi (DEL), Mumbai (BOM), Ahmedabad (AMD), Goa (GOI), Guwahati (GAU), Bagdogra (IXB), Bengaluru (BLR), Pune (PNQ), Lucknow (LKO), Varanasi (VNS), Bhubaneswar (BBI), Bagdogra (IXB), Srinagar (SXR), Jammu (IXJ), Cochin (COK), Chandigarh (IXC) and Kolkata (CCU).",
	"Travel_Flexibility_Label" : "",
	"Product_Label" : "eCoupon books",
	"Depart_List" : [],
	"City_Or_Airport" : "City or airport",
	"Used_Flights_Label" : "Used Flights 0",
	"Travel_Flexibility_Flag" : 0,
	"FPO_Review_Label" : "Review",
	"OpenJaw_From_List" : [{
			"Value" : "18442",
			"Label" : "New Delhi (DEL)"
		}, {
			"Value" : "18434",
			"Label" : "Mumbai (BOM)"
		}, {
			"Value" : "18446",
			"Label" : "Guwahati (GAU)"
		}, {
			"Value" : "18426",
			"Label" : "Ahmedabad (AMD)"
		}, {
			"Value" : "18448",
			"Label" : "Goa (GOI)"
		}, {
			"Value" : "18456",
			"Label" : "Bagdogra (IXB)"
		}, {
			"Value" : "18433",
			"Label" : "Bangalore (BLR)"
		}, {
			"Value" : "18489",
			"Label" : "Pune (PNQ)"
		}, {
			"Value" : "18481",
			"Label" : "Lucknow (LKO)"
		}, {
			"Value" : "18504",
			"Label" : "Varanasi (VNS)"
		}, {
			"Value" : "18428",
			"Label" : "Bhubaneswar (BBI)"
		}, {
			"Value" : "18463",
			"Label" : "Jammu (IXJ)"
		}, {
			"Value" : "18497",
			"Label" : "Srinagar (SXR)"
		}, {
			"Value" : "18439",
			"Label" : "Cochin (COK)"
		}, {
			"Value" : "18457",
			"Label" : "Chandigarh (IXC)"
		}, {
			"Value" : "18436",
			"Label" : "Kolkata (CCU)"
		}, {
			"Value" : "18452",
			"Label" : "Hyderabad (HYD)"
		}, {
			"Value" : "18442",
			"Label" : "New Delhi (DEL)"
		}, {
			"Value" : "18434",
			"Label" : "Mumbai (BOM)"
		}, {
			"Value" : "18446",
			"Label" : "Guwahati (GAU)"
		}, {
			"Value" : "18426",
			"Label" : "Ahmedabad (AMD)"
		}, {
			"Value" : "18448",
			"Label" : "Goa (GOI)"
		}, {
			"Value" : "18456",
			"Label" : "Bagdogra (IXB)"
		}, {
			"Value" : "18433",
			"Label" : "Bangalore (BLR)"
		}, {
			"Value" : "18489",
			"Label" : "Pune (PNQ)"
		}, {
			"Value" : "18481",
			"Label" : "Lucknow (LKO)"
		}, {
			"Value" : "18504",
			"Label" : "Varanasi (VNS)"
		}, {
			"Value" : "18428",
			"Label" : "Bhubaneswar (BBI)"
		}, {
			"Value" : "18463",
			"Label" : "Jammu (IXJ)"
		}, {
			"Value" : "18457",
			"Label" : "Chandigarh (IXC)"
		}, {
			"Value" : "18497",
			"Label" : "Srinagar (SXR)"
		}, {
			"Value" : "18439",
			"Label" : "Cochin (COK)"
		}, {
			"Value" : "18436",
			"Label" : "Kolkata (CCU)"
		}, {
			"Value" : "18452",
			"Label" : "Hyderabad (HYD)"
		}
	],
	"Advance_Book_Long_Late_Label" : "Book flights at anytime up to <b>1 day <\/b>before travel.",
	"TripLabel" : "Mujhey mat hatao",
	"Flight_Heading_Label" : "Book Flight",
	"FPO_Confirm_Label" : "Confirm",
	"Advance_Booking_Title" : "Advance Booking",
	"Modify_Search_Label" : "Modify Search",
	"TravelZone_Title_Label" : "Travel Zone",
	"Cabin_Name" : "Premium Economy",
	"Pax_Label" : "Passenger(s)",
	"Return_Label" : "Return",
	"ArriveAirport_List" : [{
			"Value" : "18442",
			"Label" : "New Delhi (DEL)"
		}, {
			"Value" : "18434",
			"Label" : "Mumbai (BOM)"
		}, {
			"Value" : "18446",
			"Label" : "Guwahati (GAU)"
		}, {
			"Value" : "18426",
			"Label" : "Ahmedabad (AMD)"
		}, {
			"Value" : "18448",
			"Label" : "Goa (GOI)"
		}, {
			"Value" : "18456",
			"Label" : "Bagdogra (IXB)"
		}, {
			"Value" : "18433",
			"Label" : "Bangalore (BLR)"
		}, {
			"Value" : "18489",
			"Label" : "Pune (PNQ)"
		}, {
			"Value" : "18481",
			"Label" : "Lucknow (LKO)"
		}, {
			"Value" : "18504",
			"Label" : "Varanasi (VNS)"
		}, {
			"Value" : "18428",
			"Label" : "Bhubaneswar (BBI)"
		}, {
			"Value" : "18463",
			"Label" : "Jammu (IXJ)"
		}, {
			"Value" : "18497",
			"Label" : "Srinagar (SXR)"
		}, {
			"Value" : "18439",
			"Label" : "Cochin (COK)"
		}, {
			"Value" : "18457",
			"Label" : "Chandigarh (IXC)"
		}, {
			"Value" : "18436",
			"Label" : "Kolkata (CCU)"
		}, {
			"Value" : "18452",
			"Label" : "Hyderabad (HYD)"
		}, {
			"Value" : "18442",
			"Label" : "New Delhi (DEL)"
		}, {
			"Value" : "18434",
			"Label" : "Mumbai (BOM)"
		}, {
			"Value" : "18446",
			"Label" : "Guwahati (GAU)"
		}, {
			"Value" : "18426",
			"Label" : "Ahmedabad (AMD)"
		}, {
			"Value" : "18448",
			"Label" : "Goa (GOI)"
		}, {
			"Value" : "18456",
			"Label" : "Bagdogra (IXB)"
		}, {
			"Value" : "18433",
			"Label" : "Bangalore (BLR)"
		}, {
			"Value" : "18489",
			"Label" : "Pune (PNQ)"
		}, {
			"Value" : "18481",
			"Label" : "Lucknow (LKO)"
		}, {
			"Value" : "18504",
			"Label" : "Varanasi (VNS)"
		}, {
			"Value" : "18428",
			"Label" : "Bhubaneswar (BBI)"
		}, {
			"Value" : "18463",
			"Label" : "Jammu (IXJ)"
		}, {
			"Value" : "18457",
			"Label" : "Chandigarh (IXC)"
		}, {
			"Value" : "18497",
			"Label" : "Srinagar (SXR)"
		}, {
			"Value" : "18439",
			"Label" :
			"Cochin (COK)"
		}, {
			"Value" : "18436",
			"Label" : "Kolkata (CCU)"
		}, {
			"Value" : "18452",
			"Label" : "Hyderabad (HYD)"
		}
	],
	"ToLabel" : "To",
	"FromLabel" : "From",
	"Zone_Lat_Longitudes" : [{
			"Arrive_CityName" : "Mumbai",
			"Depart_Longitude" : 77.11806,
			"Depart_CityName" : "New Delhi",
			"Depart_Latitude" : 28.56944,
			"Arrive_Longitude" : 72.86806,
			"Arrive_Latitude" : 19.08861
		}, {
			"Arrive_CityName" : "Guwahati",
			"Depart_Longitude" : 77.11806,
			"Depart_CityName" : "New Delhi",
			"Depart_Latitude" : 28.56944,
			"Arrive_Longitude" : 91.58583,
			"Arrive_Latitude" : 26.10611
		}, {
			"Arrive_CityName" : "Ahmedabad",
			"Depart_Longitude" : 77.11806,
			"Depart_CityName" : "New Delhi",
			"Depart_Latitude" : 28.56944,
			"Arrive_Longitude" : 72.63472,
			"Arrive_Latitude" : 23.07722
		}, {
			"Arrive_CityName" : "Goa",
			"Depart_Longitude" : 77.11806,
			"Depart_CityName" : "New Delhi",
			"Depart_Latitude" : 28.56944,
			"Arrive_Longitude" : 73.84167,
			"Arrive_Latitude" : 15.5
		}, {
			"Arrive_CityName" : "Bagdogra",
			"Depart_Longitude" : 77.11806,
			"Depart_CityName" : "New Delhi",
			"Depart_Latitude" : 28.56944,
			"Arrive_Longitude" : 88.33333,
			"Arrive_Latitude" : 26.73333
		}, {
			"Arrive_CityName" : "Hyderabad",
			"Depart_Longitude" : 77.11806,
			"Depart_CityName" : "New Delhi",
			"Depart_Latitude" : 28.56944,
			"Arrive_Longitude" : 78.4675,
			"Arrive_Latitude" : 17.45306
		}, {
			"Arrive_CityName" : "Bangalore",
			"Depart_Longitude" : 77.11806,
			"Depart_CityName" : "New Delhi",
			"Depart_Latitude" : 28.56944,
			"Arrive_Longitude" : 77.6,
			"Arrive_Latitude" : 12.96667
		}, {
			"Arrive_CityName" : "Pune",
			"Depart_Longitude" : 77.11806,
			"Depart_CityName" : "New Delhi",
			"Depart_Latitude" : 28.56944,
			"Arrive_Longitude" : 73.91667,
			"Arrive_Latitude" : 18.58333
		}, {
			"Arrive_CityName" : "Lucknow",
			"Depart_Longitude" : 77.11806,
			"Depart_CityName" : "New Delhi",
			"Depart_Latitude" : 28.56944,
			"Arrive_Longitude" : 80.88333,
			"Arrive_Latitude" : 26.76667
		}, {
			"Arrive_CityName" : "Varanasi",
			"Depart_Longitude" : 77.11806,
			"Depart_CityName" : "New Delhi",
			"Depart_Latitude" : 28.56944,
			"Arrive_Longitude" : 82.86667,
			"Arrive_Latitude" : 25.45
		}, {
			"Arrive_CityName" : "Bhubaneswar",
			"Depart_Longitude" : 77.11806,
			"Depart_CityName" : "New Delhi",
			"Depart_Latitude" : 28.56944,
			"Arrive_Longitude" : 85.81778,
			"Arrive_Latitude" : 20.24444
		}, {
			"Arrive_CityName" : "Srinagar",
			"Depart_Longitude" : 77.11806,
			"Depart_CityName" : "New Delhi",
			"Depart_Latitude" : 28.56944,
			"Arrive_Longitude" : 74.78333,
			"Arrive_Latitude" : 33.98333
		}, {
			"Arrive_CityName" : "Jammu",
			"Depart_Longitude" : 77.11806,
			"Depart_CityName" : "New Delhi",
			"Depart_Latitude" : 28.56944,
			"Arrive_Longitude" : 74.83333,
			"Arrive_Latitude" : 32.68333
		}, {
			"Arrive_CityName" : "Cochin",
			"Depart_Longitude" : 77.11806,
			"Depart_CityName" : "New Delhi",
			"Depart_Latitude" : 28.56944,
			"Arrive_Longitude" : 76.40194,
			"Arrive_Latitude" : 10.15194
		}, {
			"Arrive_CityName" : "Chandigarh",
			"Depart_Longitude" : 77.11806,
			"Depart_CityName" : "New Delhi",
			"Depart_Latitude" : 28.56944,
			"Arrive_Longitude" : 76.8,
			"Arrive_Latitude" : 30.66667
		}, {
			"Arrive_CityName" : "Kolkata",
			"Depart_Longitude" : 77.11806,
			"Depart_CityName" : "New Delhi",
			"Depart_Latitude" : 28.56944,
			"Arrive_Longitude" : 88.43333,
			"Arrive_Latitude" : 22.63333
		}, {
			"Arrive_CityName" : "Bagdogra",
			"Depart_Longitude" : 91.58583,
			"Depart_CityName" : "Guwahati",
			"Depart_Latitude" : 26.10611,
			"Arrive_Longitude" : 88.33333,
			"Arrive_Latitude" : 26.73333
		}, {
			"Arrive_CityName" : "Bangalore",
			"Depart_Longitude" : 72.86806,
			"Depart_CityName" : "Mumbai",
			"Depart_Latitude" : 19.08861,
			"Arrive_Longitude" : 77.6,
			"Arrive_Latitude" : 12.96667
		}, {
			"Arrive_CityName" : "Cochin",
			"Depart_Longitude" : 72.86806,
			"Depart_CityName" : "Mumbai",
			"Depart_Latitude" : 19.08861,
			"Arrive_Longitude" : 76.40194,
			"Arrive_Latitude" : 10.15194
		}, {
			"Arrive_CityName" : "Goa",
			"Depart_Longitude" : 72.86806,
			"Depart_CityName" : "Mumbai",
			"Depart_Latitude" : 19.08861,
			"Arrive_Longitude" : 73.84167,
			"Arrive_Latitude" : 15.5
		}, {
			"Arrive_CityName" : "Hyderabad",
			"Depart_Longitude" : 72.63472,
			"Depart_CityName" : "Ahmedabad",
			"Depart_Latitude" : 23.07722,
			"Arrive_Longitude" : 78.4675,
			"Arrive_Latitude" : 17.45306
		}, {
			"Arrive_CityName" : "Goa",
			"Depart_Longitude" : 72.63472,
			"Depart_CityName" : "Ahmedabad",
			"Depart_Latitude" : 23.07722,
			"Arrive_Longitude" : 73.84167,
			"Arrive_Latitude" : 15.5
		}, {
			"Arrive_CityName" : "Goa",
			"Depart_Longitude" : 77.6,
			"Depart_CityName" : "Bangalore",
			"Depart_Latitude" : 12.96667,
			"Arrive_Longitude" : 73.84167,
			"Ar
			10-18 14:20:59.784 6691-6691/com.optiontown D/OT >>: OT >> rive_Latitude" : 15.5
		}, {
			"Arrive_CityName" : "Srinagar",
			"Depart_Longitude" : 74.83333,
			"Depart_CityName" : "Jammu",
			"Depart_Latitude" : 32.68333,
			"Arrive_Longitude" : 74.78333,
			"Arrive_Latitude" : 33.98333
		}
	],
	"Search_Label" : "Search",
	"CountryDepartName" : "All India Domestic",
	"Close_Label" : "Close",
	"Depart_Airport_Label" : "Depart",
	"TripDetails" : [{
			"Value" : "",
			"Label" : ""
		}, {
			"Value" : "2",
			"Label" : "Round-trip"
		}, {
			"Value" : "4",
			"Label" : "Open-jaw"
		}
	],
	"Travel_Period_VAlidity_Under_Date_Label" : "Travel is valid only on flights departing within this period.",
	"Travel_Flexibility_Depart" : "",
	"Travel_Period_VAlidity_Begin_Date" : "25-Oct-2016",
	"Total_Flights_Label" : "Total Flights 14",
	"Travel_Period_VAlidity_Date_Label" : "2 Months 25-Oct-2016 to 25-Dec-2016",
	"OpenJaw_Flight1_Label" : "Flight 1",
	"DepartAirport_List" : [{
			"Value" : "18442",
			"Label" : "New Delhi (DEL)"
		}, {
			"Value" : "18434",
			"Label" : "Mumbai (BOM)"
		}, {
			"Value" : "18446",
			"Label" : "Guwahati (GAU)"
		}, {
			"Value" : "18426",
			"Label" : "Ahmedabad (AMD)"
		}, {
			"Value" : "18448",
			"Label" : "Goa (GOI)"
		}, {
			"Value" : "18456",
			"Label" : "Bagdogra (IXB)"
		}, {
			"Value" : "18433",
			"Label" : "Bangalore (BLR)"
		}, {
			"Value" : "18489",
			"Label" : "Pune (PNQ)"
		}, {
			"Value" : "18481",
			"Label" : "Lucknow (LKO)"
		}, {
			"Value" : "18504",
			"Label" : "Varanasi (VNS)"
		}, {
			"Value" : "18428",
			"Label" : "Bhubaneswar (BBI)"
		}, {
			"Value" : "18463",
			"Label" : "Jammu (IXJ)"
		}, {
			"Value" : "18497",
			"Label" : "Srinagar (SXR)"
		}, {
			"Value" : "18439",
			"Label" : "Cochin (COK)"
		}, {
			"Value" : "18457",
			"Label" : "Chandigarh (IXC)"
		}, {
			"Value" : "18436",
			"Label" : "Kolkata (CCU)"
		}, {
			"Value" : "18452",
			"Label" : "Hyderabad (HYD)"
		}, {
			"Value" : "18442",
			"Label" : "New Delhi (DEL)"
		}, {
			"Value" : "18434",
			"Label" : "Mumbai (BOM)"
		}, {
			"Value" : "18446",
			"Label" : "Guwahati (GAU)"
		}, {
			"Value" : "18426",
			"Label" : "Ahmedabad (AMD)"
		}, {
			"Value" : "18448",
			"Label" : "Goa (GOI)"
		}, {
			"Value" : "18456",
			"Label" : "Bagdogra (IXB)"
		}, {
			"Value" : "18433",
			"Label" : "Bangalore (BLR)"
		}, {
			"Value" : "18489",
			"Label" : "Pune (PNQ)"
		}, {
			"Value" : "18481",
			"Label" : "Lucknow (LKO)"
		}, {
			"Value" : "18504",
			"Label" : "Varanasi (VNS)"
		}, {
			"Value" : "18428",
			"Label" : "Bhubaneswar (BBI)"
		}, {
			"Value" : "18463",
			"Label" : "Jammu (IXJ)"
		}, {
			"Value" : "18457",
			"Label" : "Chandigarh (IXC)"
		}, {
			"Value" : "18497",
			"Label" : "Srinagar (SXR)"
		}, {
			"Value" : "18439",
			"Label" : "Cochin (COK)"
		}, {
			"Value" : "18436",
			"Label" : "Kolkata (CCU)"
		}, {
			"Value" : "18452",
			"Label" : "Hyderabad (HYD)"
		}
	],
	"Arrive_Depart" : [{
			"Arrive_CityName" : "Mumbai (BOM)",
			"Depart_CityName" : "New Delhi (DEL)"
		}, {
			"Arrive_CityName" : "Guwahati (GAU)",
			"Depart_CityName" : "New Delhi (DEL)"
		}, {
			"Arrive_CityName" : "Ahmedabad (AMD)",
			"Depart_CityName" : "New Delhi (DEL)"
		}, {
			"Arrive_CityName" : "Goa (GOI)",
			"Depart_CityName" : "New Delhi (DEL)"
		}, {
			"Arrive_CityName" : "Bagdogra (IXB)",
			"Depart_CityName" : "New Delhi (DEL)"
		}, {
			"Arrive_CityName" : "Hyderabad (HYD)",
			"Depart_CityName" : "New Delhi (DEL)"
		}, {
			"Arrive_CityName" : "Bangalore (BLR)",
			"Depart_CityName" : "New Delhi (DEL)"
		}, {
			"Arrive_CityName" : "Pune (PNQ)",
			"Depart_CityName" : "New Delhi (DEL)"
		}, {
			"Arrive_CityName" : "Lucknow (LKO)",
			"Depart_CityName" : "New Delhi (DEL)"
		}, {
			"Arrive_CityName" : "Varanasi (VNS)",
			"Depart_CityName" : "New Delhi (DEL)"
		}, {
			"Arrive_CityName" : "Bhubaneswar (BBI)",
			"Depart_CityName" : "New Delhi (DEL)"
		}, {
			"Arrive_CityName" : "Srinagar (SXR)",
			"Depart_CityName" : "New Delhi (DEL)"
		}, {
			"Arrive_CityName" : "Jammu (IXJ)",
			"Depart_CityName" : "New Delhi (DEL)"
		}, {
			"Arrive_CityName" : "Cochin (COK)",
			"Depart_CityName" : "New Delhi (DEL)"
		}, {
			"Arrive_CityName" : "Chandigarh (IXC)",
			"Depart_CityName" : "New Delhi (DEL)"
		}, {
			"Arrive_CityName" : "Kolkata (CCU)",
			"Depart_CityName" : "New Delhi (DEL)"
		}, {
			"Arrive_CityName" : "Bagdogra (IXB)",
			"Depart_CityName" : "Guwahati (GAU)"
		}, {
			"Arrive_CityName" : "Bangalore (BLR)",
			"Depart_CityName" : "Mumbai (BOM)"
		}, {
			"Arrive_CityName" : "Cochin (COK)",
			"Depart_CityName" : "Mumbai (BOM)"
		}, {
			"Arrive_CityName" : "Goa (GOI)",
			"Depart_CityName" : "Mumbai (BOM)"
		}, {
			"Arrive_CityName" : "Hyderabad (HYD)",
			"Depart_CityName" : "Ahmedabad (AMD)"
		}, {
			"Arrive_CityName" : "Goa (GOI)",
			"Depart_CityName" : "Ahmedabad (AMD)"
		}, {
			"Arrive_CityName" : "Goa (GOI)",
			"Depart_CityName" : "Bangalore (BLR)"
		}, {
			"Arrive_CityName" : "Srinagar (SXR)",
			"Depart_CityName" : "Jammu (IXJ)"
		}
	],
	"Travel_Period_VAlidity_End_Date" : "25-Dec-2016",
	"
	10-18 14:20:59.784 6691-6691/com.optiontown D/OT >>: OT >> Pass_Review_Image_Label" : "&nbsp;Book 1 Days before Travel",
	"Number_of_Flights_Label" : "Number of eCoupons",
	"TravelFlex_Label" : "Travel Flexibility",
	"OpenJaw_From_Label" : "From",
	"Travel_Period_Title" : "Travel Period",
	"Available_Flights_Label" : "Available Flights 14",
	"PassListDropDown" : [{
			"Value" : "0",
			"Label" : "Select your eCoupon"
		}, {
			"Value" : "1000010003",
			"Label" : "All India Domestic  OCN # 1006482953"
		}, {
			"Value" : "1000010002",
			"Label" : "All India Domestic  OCN # 1006482952"
		}
	],
	"Pax_List" : [{
			"Value" : "1",
			"Label" : "1"
		}, {
			"Value" : "2",
			"Label" : "2"
		}, {
			"Value" : "3",
			"Label" : "3"
		}, {
			"Value" : "4",
			"Label" : "4"
		}
	],
	"Add_Passenger_Label" : "Add Passenger",
	"TravelZone_Long_Label" : "Travel valid on all non-stop domestic flights operated by Vistara within India serving the following destinations: Delhi (DEL), Mumbai (BOM), Ahmedabad (AMD), Goa (GOI), Guwahati (GAU), Bagdogra (IXB), Bengaluru (BLR), Pune (PNQ), Lucknow (LKO), Varanasi (VNS), Bhubaneswar (BBI), Bagdogra (IXB), Srinagar (SXR), Jammu (IXJ), Cochin (COK), Chandigarh (IXC) and Kolkata (CCU).",
	"Cabin_Label" : "Cabin",
	"OpenJaw_To_List" : [{
			"Value" : "18442",
			"Label" : "New Delhi (DEL)"
		}, {
			"Value" : "18434",
			"Label" : "Mumbai (BOM)"
		}, {
			"Value" : "18446",
			"Label" : "Guwahati (GAU)"
		}, {
			"Value" : "18426",
			"Label" : "Ahmedabad (AMD)"
		}, {
			"Value" : "18448",
			"Label" : "Goa (GOI)"
		}, {
			"Value" : "18456",
			"Label" : "Bagdogra (IXB)"
		}, {
			"Value" : "18433",
			"Label" : "Bangalore (BLR)"
		}, {
			"Value" : "18489",
			"Label" : "Pune (PNQ)"
		}, {
			"Value" : "18481",
			"Label" : "Lucknow (LKO)"
		}, {
			"Value" : "18504",
			"Label" : "Varanasi (VNS)"
		}, {
			"Value" : "18428",
			"Label" : "Bhubaneswar (BBI)"
		}, {
			"Value" : "18463",
			"Label" : "Jammu (IXJ)"
		}, {
			"Value" : "18497",
			"Label" : "Srinagar (SXR)"
		}, {
			"Value" : "18439",
			"Label" : "Cochin (COK)"
		}, {
			"Value" : "18457",
			"Label" : "Chandigarh (IXC)"
		}, {
			"Value" : "18436",
			"Label" : "Kolkata (CCU)"
		}, {
			"Value" : "18452",
			"Label" : "Hyderabad (HYD)"
		}, {
			"Value" : "18442",
			"Label" : "New Delhi (DEL)"
		}, {
			"Value" : "18434",
			"Label" : "Mumbai (BOM)"
		}, {
			"Value" : "18446",
			"Label" : "Guwahati (GAU)"
		}, {
			"Value" : "18426",
			"Label" : "Ahmedabad (AMD)"
		}, {
			"Value" : "18448",
			"Label" : "Goa (GOI)"
		}, {
			"Value" : "18456",
			"Label" : "Bagdogra (IXB)"
		}, {
			"Value" : "18433",
			"Label" : "Bangalore (BLR)"
		}, {
			"Value" : "18489",
			"Label" : "Pune (PNQ)"
		}, {
			"Value" : "18481",
			"Label" : "Lucknow (LKO)"
		}, {
			"Value" : "18504",
			"Label" : "Varanasi (VNS)"
		}, {
			"Value" : "18428",
			"Label" : "Bhubaneswar (BBI)"
		}, {
			"Value" : "18463",
			"Label" : "Jammu (IXJ)"
		}, {
			"Value" : "18457",
			"Label" : "Chandigarh (IXC)"
		}, {
			"Value" : "18497",
			"Label" : "Srinagar (SXR)"
		}, {
			"Value" : "18439",
			"Label" : "Cochin (COK)"
		}, {
			"Value" : "18436",
			"Label" : "Kolkata (CCU)"
		}, {
			"Value" : "18452",
			"Label" : "Hyderabad (HYD)"
		}
	],
	"Pass_Review_Image_Value" : 1,
	"FPO_Select_Label" : "Select"
}
